%time,field.x,field.y,field.z
1636770493212526655,0.012644311709976297,-0.06390407433386867,9.866298717791853
1636770493213370465,0.03876987852671177,-0.045924006311256774,9.852970585489922
1636770493230484676,0.012091930217057772,-0.06323737050333329,9.866303706637183
1636770493231195761,0.035200943078477605,-0.05927888030906297,9.872523615277107
1636770493250942458,0.031953632087107324,-0.07324879126117763,9.892073363140481
1636770493262052819,0.011568387115466618,-0.06214067100500823,9.86631130210866
1636770493262631546,0.055009391486447706,-0.0690498249284024,9.898296907046479
1636770493281318980,0.017551303798902154,-0.08079867916448871,9.853079184300535
1636770493281909586,0.03724554911792835,-0.04332833833833175,9.852988221491314
1636770493300399236,0.03405826962437944,-0.05734504062635015,9.872539045111647
1636770493312755953,0.04356126970047937,-0.062161627735851696,9.839755672913771
1636770493313344154,0.00753935914459728,-0.07458912159193498,9.885873752243548
1636770493331812628,0.04321887181434393,-0.061792007784623994,9.839759511816313
1636770493332662460,0.03345635094140265,-0.056258062369905805,9.872547356818862
1636770493351032619,0.039752091071340624,-0.07545113405492394,9.859316122147177
1636770493351464423,0.03941616321503622,-0.07519478924270105,9.859319429963996
1636770493371313139,0.0391438940189405,-0.07517011426309701,9.85932070188489
1636770493390397164,0.03565121492666781,-0.0649678803343568,9.865940949651247
1636770493402405758,0.015206079916102984,-0.07762393573802423,9.853108604750112
1636770493402910790,0.01801539439892386,-0.06323585634390252,9.833557261437884
1636770493421685993,0.03800322954992841,-0.07392948669780582,9.859334545473677
1636770493422757904,0.010952439801820637,-0.04333102082306413,9.846789443924102
1636770493442090262,0.051192576274081546,-0.06447895047303931,9.898348212755254
1636770493442785470,0.040185012203953825,-0.0586759125908378,9.839791443692503
1636770493461008508,0.013575019571903305,-0.07610497170018131,9.853122837861468
1636770493479554015,0.03680426129256127,-0.07213399898109679,9.859352394144546
1636770493480811056,0.033205649484815386,-0.03809734478714156,9.853024279089954
1636770493492210723,0.012886722304954709,-0.07508327189783104,9.853131600554214
1636770493492898575,0.03600468119513375,-0.07122885407913278,9.859361927119568
1636770493511440361,0.05275904954758387,-0.047839586538251266,9.87881456403559
1636770493512145745,0.012308425369437801,-0.07397568859630303,9.853140716755908
1636770493530326784,0.008624356438309475,-0.03981772915250049,9.846806591159336
1636770493542650837,0.03836111331357029,-0.055434441956877085,9.839817518575122
1636770493543227596,0.02229326039676193,-0.030416957937234295,9.88581476958104
1636770493561847391,0.06136496770144728,-0.05128735097936936,9.846051543809743
1636770493562641373,0.025179855060071133,-0.06370611384665419,9.89215898398476
1636770493580965806,0.034358713111826096,-0.06853096123914489,9.859386923100725
1636770493581679921,0.02021218154417603,-0.07681656083167143,9.8203852481999
1636770493600364827,0.02083786104389354,-0.02878909882320497,9.885822817652224
1636770493612427766,0.03052208591867875,-0.08180576212518068,9.878956926655766
1636770493613055952,0.02263239390284963,-0.06173601787162892,9.800832112773426
1636770493631654444,0.0035413795264870925,-0.0510878055419879,9.8663808710259
1636770493632635922,0.026750736271381092,-0.04715647098481602,9.872615473892408
1636770493650703766,0.0162122272762021,-0.08932930390278981,9.83996276917285
1636770493662910848,0.049835810536283116,-0.043045494878584986,9.878851795412912
1636770493663522855,0.009478851010021086,-0.0692853574753411,9.85317794314888
1636770493680983322,0.04219136582444816,-0.07060845112597938,9.82664193254459
1636770493682091859,0.009125440838161601,-0.06851895917059657,9.853183637128621
1636770493701341310,0.0460261540811628,-0.05584468444859775,9.898426062727607
1636770493701789121,0.05204188362290395,-0.0751478405764503,9.885222906906115
1636770493720316592,0.03430364174953655,-0.04977191962315058,9.839862773120295
1636770493732531668,0.007798759514185821,-0.06714530946323757,9.853194232163023
1636770493733422168,0.031104126743812598,-0.06318104561655014,9.85943346215693
1636770493750763744,0.030790696142354444,-0.06274934562218534,9.859437203797514
1636770493751910706,0.03046572141185099,-0.06238838953241963,9.85944050275942
1636770493770854477,0.03015225230580696,-0.061956758072887884,9.859444189992585
1636770493790503022,0.03655832529089148,-0.08105157565705665,9.846247285530485
1636770493791321214,0.02645694934050635,-0.05146256234680598,9.866049577372396
1636770493803734070,0.029153799483703582,-0.06078931335638028,9.859454458241416
1636770493822364505,0.05536486214348714,-0.042612682013222866,9.84612847559773
1636770493823330595,0.005427947394973169,-0.06365824964783462,9.853218969393255
1636770493841437058,0.05178148832405498,-0.05626071446103941,9.865703959422996
1636770493841983179,0.0252062307848073,-0.07377586388365522,9.87903515123613
1636770493861097674,0.021467904118323545,-0.03970837584423572,9.87266114030503
1636770493861199258,0.037332424852869306,-0.0642016179119988,9.826705540278727
1636770493873149537,0.03418229777061619,-0.07794209110915533,9.846280928556434
1636770493892963067,0.0007079111138300707,-0.02782353059545658,9.846851537164728
1636770493893763482,0.02733489188689298,-0.05776971477753576,9.859477824175512
1636770493911884564,0.027096728932476426,-0.057499126091691895,9.85948006319572
1636770493912739864,0.04706683972364375,-0.06774942260686605,9.885301321025805
1636770493951128577,0.027225798154671826,-0.06765493937107225,9.8616182418851
1636770493962432729,0.03202302411163002,-0.07535997831937394,9.846308286860546
1636770493962951897,0.008629288762762434,-0.07864974958618105,9.84006349649877
1636770493982520644,0.038936516945812155,-0.04638290672993967,9.898505349488861
1636770493983519398,0.011139265855297835,-0.06376018842902095,9.820493178491633
1636770494000675513,0.028203971457925775,-0.08847308408002481,9.865895538355264
1636770494001332340,0.024429440720097617,-0.05426479772339756,9.85950536570514
1636770494021110213,0.0242315691734254,-0.05393039977202496,9.859507687224626
1636770494032095178,0.02115829326320938,-0.06807850050363325,9.87908555342466
1636770494032837272,0.021135549202728983,-0.06788865535899283,9.879086908877156
1636770494051521097,0.027389010156118054,-0.08704948535307434,9.865910499020579
1636770494052023354,0.013893407816916899,-0.047787214608615534,9.89227098312204
1636770494070543065,0.02324294118134894,-0.05273055342483132,9.859516557929009
1636770494082953266,0.01991066603712368,-0.06667765573686488,9.879097701818042
1636770494083723969,0.046011015845543526,-0.04841002377613446,9.865774205283447
1636770494101008137,0.022463438183071442,-0.05165387926452068,9.859524064376414
1636770494101971419,0.025720504337309054,-0.08508579704781914,9.865932119311895
1636770494121343865,0.01876665315449154,-0.0653386751711246,9.879108888221591
1636770494122493031,0.04794398836652731,-0.03295645900176111,9.846204461736432
1636770494140385480,0.05146211102475876,-0.06640213823313539,9.852614252031513
1636770494152573734,0.02491497740155806,-0.0839593263959131,9.865943837032612
1636770494153365864,0.04454114435670698,-0.04618675436525091,9.86579160989985
1636770494172019311,0.04789242170638302,-0.07948603855267827,9.872207439103917
1636770494172383236,0.027252853811261725,-0.06849279406289482,9.846372809983231
1636770494191127947,0.023956351149454345,-0.08244162216628413,9.865959010006044
1636770494211129006,0.0452000674986624,-0.06146558155189668,9.869012477210656
1636770494222042260,0.019779344720819898,-0.04776403697036642,9.859549425458065
1636770494222850554,0.026166142814507225,-0.06709244617343592,9.84638539818507
1636770494241470778,0.022977154604414917,-0.08124191917757491,9.865971290922829
1636770494242050710,0.01928439125185269,-0.04721822802880073,9.859553035237935
1636770494260591495,0.04601556205235195,-0.07702009548918946,9.872235911533288
1636770494272870982,0.022378002504574893,-0.08034510192893819,9.8659800139895
1636770494273445852,0.03886129022085058,-0.056724322122962835,9.885406395662537
1636770494300566201,0.024934393162531977,-0.0652243742555708,9.846401147129335
1636770494301574781,0.03835482139215458,-0.056139437429853,9.88541171164436
1636770494301704703,0.0478480235570228,-0.06118698291060007,9.852666233173561
1636770494313447976,0.04465705059333905,-0.07514875086379896,9.872256573100431
1636770494331958921,0.03786560919624019,-0.05533420569571869,9.885418138107186
1636770494332910956,0.04730352759759659,-0.06033424765087789,9.852674121140428
1636770494351211863,0.023795801440374843,-0.06366475262419295,9.846414172386936
1636770494351795029,0.04026268260426396,-0.04003108943401532,9.865836895577738
1636770494370376406,0.03704359581779111,-0.05394924956292196,9.885428907716664
1636770494382400751,0.04944734890658083,-0.0446500962928406,9.83309678491572
1636770494382967111,0.013239341705190125,-0.05696696090300565,9.879169662908625
1636770494401627847,0.022626061604854517,-0.06192361930201958,9.84642803282109
1636770494403765674,0.042707485814574835,-0.07223631548921547,9.872286939459942
1636770494420728449,0.04261556122893665,-0.07206789604871774,9.872288566904716
1636770494433177426,0.025640985547649958,-0.09501853359884033,9.852874090268502
1636770494433652007,0.015133666340933114,-0.0413104751339516,9.859586803241125
1636770494451306948,0.028163543505298986,-0.07993379498225593,9.833290647382588
1636770494451979546,0.04156201404768187,-0.07081537816432523,9.872302123058395
1636770494471519876,0.04428211897397155,-0.0562462234908273,9.852712350100592
1636770494471878375,0.017607531573827932,-0.07381711580358143,9.866040682045352
1636770494490525608,0.020338617581828068,-0.059145007466636645,9.846450106545394
1636770494501660123,0.06673298005019393,-0.05131525024242233,9.858993074987444
1636770494502272504,0.013771442361208346,-0.08687117768509729,9.88564614996053
1636770494520825372,0.016647260669674445,-0.07233828446520335,9.866053302113926
1636770494521949874,0.03314429078582924,-0.048941147477501425,9.885468814134391
1636770494541098980,0.04241914544254692,-0.05387640170460597,9.852733790792541
1636770494552425496,0.03616782827929542,-0.08199192284437758,9.891929992070624
1636770494553020122,0.015750327656874716,-0.07105555274486089,9.866064097000047
1636770494571565870,0.06222680854269533,-0.06325570025640193,9.878612441334798
1636770494572259339,0.015455247383098388,-0.07033723830759876,9.866069710384567
1636770494590640691,0.041558600231508064,-0.05215787063270074,9.852746704575507
1636770494591730091,0.04797664209200902,-0.07147759277184731,9.83961129590468
1636770494623019523,0.024590707607702322,-0.050777965010116874,9.865982432740312
1636770494623552306,0.0407339569458489,-0.05103130562982718,9.852756048157078
1636770494642024128,0.03740084730315341,-0.0649134165135698,9.87235933625931
1636770494642810116,0.007142746876550695,-0.048721358845501585,9.879220058384847
1636770494661333206,0.016609835292930746,-0.05351987001079804,9.846489284069577
1636770494661848185,0.04335304126750422,-0.08318470767851648,9.859238729221719
1636770494680394191,0.0063032843326704105,-0.047599712628618465,9.879226098831923
1636770494692569781,0.04562508293391728,-0.06817051619808767,9.839645948903625
1636770494693332393,0.006004968834600549,-0.04688180780157609,9.87922971522979
1636770494720308927,0.03945492648221971,-0.09613541726674375,9.878856569432632
1636770494720557436,0.0452566871660074,-0.0673947603164037,9.83965299386993
1636770494732616057,0.03229623419265361,-0.07607329773970842,9.891990678132784
1636770494733487983,0.011749397046825384,-0.06518552857557416,9.866110202123664
1636770494750859693,0.04156607406101084,-0.08060959529022106,9.859267815161298
1636770494751826389,0.04123143022503076,-0.08035523900713216,9.85927129772019
1636770494770951462,0.04400935392404781,-0.0657779609145258,9.839669593226258
1636770494771397438,0.03726336801106178,-0.04606110901179076,9.852794273618557
1636770494790612217,0.007806231567950263,-0.07816392309456861,9.885725340362479
1636770494802310632,0.03393200252388603,-0.05985864767862349,9.872403810713594
1636770494803352285,0.03658907503858247,-0.04518675490413361,9.852800850687114
1636770494821437052,0.040104783190416236,-0.07850052444024506,9.859290886206566
1636770494822185091,0.019730265470593106,-0.06770668072789138,9.833402975405974
1636770494840517788,0.03594308666729453,-0.04424925603720211,9.852807483351244
1636770494841717524,0.039307673683332475,-0.07756505936576061,9.859301500730986
1636770494853446433,0.01586251609874401,-0.08095517201578101,9.853020269390095
1636770494872082911,0.01570271853067299,-0.08084675612140424,9.85302141525823
1636770494872905970,0.03518701540213488,-0.04317219075592429,9.852814990041246
1636770494891241767,0.03198190170637174,-0.05714044386131508,9.872426426748378
1636770494891903112,0.034757179035386984,-0.042751226784708066,9.852818350788901
1636770494910402997,0.00826458103044727,-0.06051624801306141,9.86614348164695
1636770494922641536,0.031159205941703818,-0.056487417142083794,9.872432816645889
1636770494923907916,0.04057635399197971,-0.061457194217627464,9.839712284000338
1636770494941770871,0.04046668163632018,-0.06117769470114161,9.839714477491741
1636770494960830331,0.030480013635482892,-0.055465023693946354,9.8724407349744
1636770494961340326,0.06967505669083063,-0.07584143303395083,9.832904389223783
1636770494979975706,0.03336826872939499,-0.0881583840821773,9.878953410753281
1636770494992321053,0.029382229206376686,-0.05424769644351877,9.872450825542815
1636770494992760198,0.03569039327621404,-0.07345780276350562,9.859346716139502
1636770495012829527,0.025724057431047633,-0.06771371091330983,9.89207070808786
1636770495030548534,0.0381828389352702,-0.058396289361557,9.839740504982954
1636770495031233469,0.028279324862562273,-0.05295321911569569,9.872461073935046
1636770495050824486,0.03480326326971601,-0.07202464856789437,9.859360461471107
1636770495062989682,0.027826135099089516,-0.05227231591724878,9.872465990581954
1636770495063614271,0.0306037349441619,-0.03781889521864612,9.852852294897886
1636770495080989947,0.010784567603742511,-0.07503749835957206,9.853073980430052
1636770495081836686,0.039818031056808145,-0.04263656020864248,9.820138683473068
1636770495101154535,0.0036985238626581138,-0.05519255920767167,9.866177467419568
1636770495102196537,0.026781590468014274,-0.05106196136652606,9.872475214582641
1636770495122478918,0.04484616496831309,-0.0678824110291219,9.862530216787928
1636770495141361239,0.009470992996936734,-0.07312559007650495,9.853089705535593
1636770495141718361,0.055821860356367714,-0.06528677527655542,9.865686740833347
1636770495160219607,0.02579183669340393,-0.04935771760030637,9.872486516200993
1636770495172516790,0.048820384677940844,-0.04535030116907727,9.878786219211083
1636770495173159254,0.034910858239312996,-0.05397725470141898,9.839777892030165
1636770495191549323,0.0316755867220851,-0.06781662865313091,9.859400847090573
1636770495192430162,0.00509541872277317,-0.08552750968623106,9.8727246096221
1636770495210811547,0.054275130588239844,-0.06331132038294199,9.865708246057252
1636770495211634123,0.057028068494822115,-0.04871564707660961,9.846090678622563
1636770495230976191,0.014246306260928893,-0.041676636813949834,9.905214075060716
1636770495231406629,0.034131476498071245,-0.09984955343743929,9.865949479664266
1636770495243621336,0.033029217466739674,-0.05179731101551951,9.839796103663296
1636770495262187557,0.029913060167910323,-0.06572975858522812,9.859420486285623
1636770495263195139,0.03942143902172113,-0.07054215616581352,9.826714567292877
1636770495281212814,0.04979964382240217,-0.07533872955785217,9.885353595283505
1636770495281736534,0.062256290090484875,-0.065892813485731,9.833025859588325
1636770495300538066,0.029119073964274007,-0.06414288823792584,9.859433313292977
1636770495312618886,0.02876140506313251,-0.06406659898110613,9.859434861174252
1636770495313450234,0.028368657928983715,-0.06380111490181298,9.859437719069396
1636770495331773979,0.018413290895700797,-0.0582012354373167,9.892147559165593
1636770495332464089,0.04433217920673944,-0.039789422964650566,9.878831342587096
1636770495350910782,0.027610589409972092,-0.06284036018874911,9.859446041072559
1636770495363126947,0.024360217127874284,-0.07684918361901888,9.879074178547837
1636770495363727346,0.0036996660673669886,-0.06622041076235927,9.853142390298194
1636770495382189129,0.0501118286105785,-0.05817496892263007,9.865761895742779
1636770495383003931,0.04996157536500029,-0.05795881186835246,9.865763929622249
1636770495401417098,0.03325146412202018,-0.08101792190815144,9.846380356104326
1636770495401816204,0.03303847033976136,-0.08057274717076887,9.84638472574667
1636770495420501304,0.026073081287384583,-0.06076528555098556,9.859463234482828
1636770495431714971,0.04920206087255433,-0.0566256070431099,9.865775488883813
1636770495432205860,0.03247123931308011,-0.07968545828792785,9.846393833002924
1636770495450980303,0.04580579578238342,-0.07041369557196908,9.885409215701761
1636770495451957712,0.015676086456627516,-0.05434130729853222,9.892174234934691
1636770495471043689,0.045475395656688546,-0.06950165784490583,9.885417196222148
1636770495482258839,0.03174771398046048,-0.07836618498224585,9.846406781218324
1636770495482843283,0.024822212591574633,-0.05838906948681977,9.859480822640228
1636770495501543207,0.0642941856182427,-0.07894052485062077,9.820026992922191
1636770495502184074,0.04753678799400433,-0.05385810102205635,9.865799150259411
1636770495522651227,0.014347343609095392,-0.05194956780304193,9.892189098817296
1636770495541945546,0.040717621828723224,-0.08128192637451441,9.85940186177289
1636770495542323427,0.04668854041021876,-0.05243691959878871,9.86581085606152
1636770495560569585,0.02012762344025557,-0.07026532713158098,9.879132730907337
1636770495561135196,0.026767458510695535,-0.08937713015689287,9.866072634146521
1636770495581020466,0.02285400622666933,-0.05546204544621811,9.859502480073672
1636770495592939694,0.05954204576649505,-0.09020002485651771,9.839697171699115
1636770495593370975,0.01951103657573991,-0.06889360735089314,9.879143628797218
1636770495612215553,0.045533878709336575,-0.050471178529204574,9.865826504600571
1636770495612969550,0.02890894168007271,-0.07354103051915235,9.846452745293146
1636770495632345331,0.028666965766374324,-0.07309011463676365,9.846456810495654
1636770495633861222,0.021734208440511715,-0.0532257826856119,9.859517337923647
1636770495651227603,0.05170188831011923,-0.06845562452778839,9.852780430687302
1636770495651746057,0.028356692179845436,-0.07189600770796312,9.84646650020074
1636770495670263998,0.021477794351075857,-0.05207936004846137,9.859524021901409
1636770495682738296,0.04844430967802302,-0.08167260175596733,9.872428400677952
1636770495683452872,0.024055553573134072,-0.03736347673184666,9.839887528883509
1636770495701861993,0.0306914206460391,-0.05661686009391814,9.8268358074723
1636770495702724424,0.02732307518984011,-0.07065672601257458,9.84647839558684
1636770495721309639,0.017043529826967073,-0.06502117212927233,9.879174439177216
1636770495722208174,0.023739350433886086,-0.08417412893367628,9.86612614722915
1636770495740063299,0.036297363594231545,-0.07492730082612709,9.813796314301285
1636770495752352194,0.02327902160678616,-0.08353145217879379,9.8661327064989
1636770495753031569,0.023083964454137455,-0.08319874585745844,9.86613597614788
1636770495771589759,0.049142643705832115,-0.06458383108387894,9.852819668490257
1636770495772072381,0.022587308206406368,-0.08233186791370065,9.866144398349018
1636770495790515665,0.025260474212322304,-0.06793368380495206,9.846503063850657
1636770495803014315,0.022185224169472818,-0.08173726506590957,9.866150254606854
1636770495803576277,0.02193166098153695,-0.0813568713770896,9.866153964961217
1636770495821121350,0.027602260564379522,-0.052632680310163375,9.826867117812004
1636770495821999044,0.041789036948909626,-0.09094352662105795,9.892130871243314
1636770495841426803,0.020283556661762975,-0.032442555983314886,9.839913482055444
1636770495842288938,0.05106030521913281,-0.09524235472838002,9.859455453243395
1636770495853579072,0.04687044917186309,-0.06126109374910919,9.852851957907589
1636770495872671859,0.013685142705099629,-0.059768498349083286,9.879212836775096
1636770495873534295,0.04375869119634742,-0.07511475780419281,9.872502354387015
1636770495891999652,0.01636838765171214,-0.045086721684442034,9.859568286529859
1636770495892154336,0.04326712090371664,-0.07442817354067327,9.872509721101594
1636770495910784385,0.03620927881877769,-0.054692281441192196,9.885548506898516
1636770495922116766,0.0195761753168869,-0.07783926969743543,9.86618729866951
1636770495922627288,0.04557556046295362,-0.05955606204778443,9.852868486184054
1636770495951682099,0.03045563067481701,-0.07523816518492162,9.869358625108312
1636770495962109393,0.02132864423460294,-0.062460485343830634,9.846548605479192
1636770495962644091,0.00167198693058281,-0.051475531333994205,9.911915438892741
1636770495981298864,0.037429613944100666,-0.0382830679520733,9.8659154026551
1636770495982089582,0.045013292763333865,-0.10532284584121807,9.879161471908088
1636770496001497826,0.010822963827800123,-0.05575326247970441,9.879239863012906
1636770496001810265,0.024359786714302566,-0.09436553273308315,9.853186083964657
1636770496020655967,0.043407100709785394,-0.056438285964960616,9.852896630736453
1636770496040171703,0.03722093937293713,-0.08437619191522774,9.892207311961892
1636770496040839722,0.01972369868276692,-0.05958376887184263,9.846569779027803
1636770496051855168,0.03992129540840736,-0.06952139835052519,9.87255959049633
1636770496052651116,0.03278176545913808,-0.04977359409840552,9.885586455783097
1636770496070971892,0.02601799416774366,-0.07824377507681861,9.833552608325279
1636770496071471648,0.03931128183586298,-0.0686968925765533,9.872567809612477
1636770496090216119,0.018779167881222653,-0.05815036247247443,9.846580196077237
1636770496102400989,0.018524613665771898,-0.05777134189782586,9.846582908850467
1636770496102975235,0.038576212883731545,-0.06755904882937201,9.872578562171237
1636770496121598505,0.041056485987354174,-0.053032015326626755,9.85292562921341
1636770496122397628,0.04474548094663688,-0.08640764109529495,9.859567516656469
1636770496140746153,0.014552172503687575,-0.07057473812189248,9.86625062732245
1636770496141232737,0.01735547564241103,-0.056007087305777074,9.846595232046143
1636770496160957126,0.040385194617404335,-0.05176009741265823,9.852935166405805
1636770496172061964,0.02388974273803279,-0.07500501353821919,9.833583245754483
1636770496172618151,0.037179883399796596,-0.06536602277685535,9.872598682499081
1636770496191345066,0.03400899895504915,-0.07909004001895432,9.89226255154099
1636770496192230337,0.03672895316872149,-0.0646514506026783,9.872605074826438
1636770496210281762,0.023238935739061037,-0.07370501544350068,9.833594635440642
1636770496222614351,0.01621404131638448,-0.053879615489250465,9.846609048809242
1636770496223461015,0.029298091164533354,-0.04426279102279695,9.88562360557475
1636770496241737591,0.04564689689013119,-0.0686608391960447,9.839945314367743
1636770496242605397,0.06153586750064779,-0.044768508961631835,9.859300609403922
1636770496261242239,0.0351109353023347,-0.06263513256804197,9.872623959791914
1636770496261551235,0.034971710054509136,-0.062314588955547305,9.872626483526059
1636770496273837183,0.03491423704062976,-0.06190014464042425,9.872629293470288
1636770496292544221,0.04162958786722896,-0.08103839598316444,9.859626759357727
1636770496293689192,0.011132577876789361,-0.0652147710721675,9.86629196315108
1636770496311744229,0.03417943441416595,-0.060798994579345546,9.872638707658169
1636770496312594536,0.01766911110344289,-0.08395312801490844,9.85329457238749
1636770496330518645,0.033902179112724605,-0.06019318001255829,9.872643375367216
1636770496350195787,0.017306697528920847,-0.08326143001640747,9.853301087254959
1636770496350968276,0.049649661648862135,-0.059833288199010716,9.859491751336314
1636770496363413933,0.01259145070685697,-0.048674968950191855,9.846641450816684
1636770496382015411,0.03571005642762384,-0.04437149632434041,9.852989263934425
1636770496382807247,0.03265431807880332,-0.058253518851516396,9.872659216900402
1636770496401242781,0.03244615081400377,-0.05799141628369501,9.872661447116723
1636770496401722654,0.03223797119206251,-0.057729334396617225,9.872663664237685
1636770496421474425,0.04184934541766328,-0.06276586190243569,9.840001565987377
1636770496421906396,0.024800584134197615,-0.03768053081932229,9.885663191506994
1636770496433156116,0.017967058906654423,-0.0662293031498971,9.83365887243931
1636770496452857120,0.03105944103618229,-0.05653567147103479,9.87267435051853
1636770496453649998,0.0378711687668151,-0.07561510695727758,9.859684994777444
1636770496471827646,0.007440163514678106,-0.05987749834224983,9.866329273084473
1636770496472810879,0.040301830692423705,-0.060985697510967225,9.840019218882556
1636770496490852738,0.037155436704277636,-0.0749159495850254,9.85969305505714
1636770496491436354,0.036962064099121526,-0.07461825133695871,9.859696038598264
1636770496510040504,0.029865589319488666,-0.054934465922732,9.872687073188317
1636770496522429892,0.03673372245522285,-0.0741315254672888,9.859700563635108
1636770496525221050,0.03235889967369283,-0.04024878182549887,9.853018544263884
1636770496541632242,0.03884880566494846,-0.05947768465222642,9.840034293828175
1636770496542154166,0.012494302219400575,-0.077357376425882,9.853356483510494
1636770496560856701,0.035491734986517795,-0.07296184981225776,9.859713837834247
1636770496573097125,0.005158383507971687,-0.05715664626108976,9.866346867909524
1636770496573901834,0.025255911253077717,-0.06681104522537591,9.892379322338995
1636770496591168304,0.0349177359559836,-0.0718937771507314,9.859723732634514
1636770496592009050,0.014524777093431643,-0.06152843549802184,9.833695094788526
1636770496611312425,0.03747798844795846,-0.05715366608419922,9.840053383525728
1636770496612363213,0.037213640569138985,-0.056879794698574716,9.840055973633646
1636770496623074961,0.060263936968516216,-0.05248315849824521,9.846415256072108
1636770496642976573,0.03391594791031548,-0.0703384143498912,9.859738449230937
1636770496643746641,0.010405060703963596,-0.07409739850160463,9.853383965319466
1636770496660987125,0.026344309087371075,-0.0503096841695124,9.872721748126473
1636770496661353743,0.02324397621335179,-0.06413352752508474,9.892401974663482
1636770496681200441,0.03272998170272234,-0.06918273454910802,9.859750634975413
1636770496692216191,0.035240227922999585,-0.05472902982402742,9.840075436192294
1636770496693591207,0.02926792112710921,-0.08271330845870029,9.87943583291282
1636770496711497303,0.04819717867410848,-0.0447443257942888,9.879093716886832
1636770496712560127,0.03166905117255221,-0.06798183278184781,9.859762452095003
1636770496730716635,0.05185448458644538,-0.07765717990071877,9.885807445717735
1636770496731268375,0.02454745529298551,-0.04782814969512588,9.872738712334018
1636770496743311022,0.03830310680461999,-0.08664365396095496,9.846798370814478
1636770496770807842,0.0323398082969956,-0.05964764760353766,9.849932905898642
1636770496781984954,0.023522747155430998,-0.04663401258182584,9.872746920315706
1636770496782496085,0.046536450502885594,-0.04220331495014714,9.879112861422996
1636770496801259679,0.030064556583010833,-0.06539047136128712,9.859785001893698
1636770496801706520,0.006640435074320441,-0.06904923624170187,9.8534238905937
1636770496821506988,0.050027213066005584,-0.07470740135133566,9.885839592568262
1636770496822521031,0.029507735986321677,-0.0644362766995832,9.859792965296203
1636770496834452021,0.05246228143435119,-0.05994878434887463,9.866161959803883
1636770496860216668,0.028940772350229245,-0.06363019272415724,9.859799881356151
1636770496861334487,0.025811113611853655,-0.07751064468038987,9.879487656721786
1636770496871762187,0.04479751398192715,-0.03950417212827044,9.879132061960725
1636770496872265427,0.03248511495645915,-0.09632615299851141,9.866533779975853
1636770496891074349,0.02801743790457475,-0.06234969158619906,9.85981072887557
1636770496891490250,0.030585481232457242,-0.04784798383158715,9.840126870669263
1636770496910283477,0.03443930139546927,-0.08115278456323767,9.84685942680925
1636770496922832520,0.02728969254868451,-0.06140113893593899,9.859818721800288
1636770496923570807,0.04737947709393827,-0.071084296775003,9.88587935388245
1636770496942574903,0.029633094675026835,-0.04659865129057722,9.840135780108145
1636770496943480740,0.026535107901793416,-0.060481808344967115,9.859826463729423
1636770496961747286,0.02629918941689969,-0.06021479245511033,9.859828730263985
1636770496962320580,0.023174089856486516,-0.07409081217268146,9.87952043331768
1636770496980905551,0.04616296855247051,-0.0695143810003237,9.885896273559794
1636770496993183903,0.02849391678159709,-0.044913293886887265,9.840146981681524
1636770496993685221,0.025294608695720765,-0.05866383368442305,9.8598407094834
1636770497011351393,0.02212480586298151,-0.07241948907664489,9.87953523146689
1636770497012263722,0.04797638722634371,-0.0538714786235811,9.86621984765547
1636770497031646100,0.0217123735342105,-0.071932734924337,9.879539702203656
1636770497032703548,0.017386139409845628,-0.03810700931920169,9.872796228885361
1636770497050753251,0.008096011877570355,-0.08104224129194754,9.840529112238324
1636770497061881802,0.037516446824784264,-0.04773340737030343,9.898865700560075
1636770497062756724,0.02118183701745665,-0.07087311664383546,9.879548513642025
1636770497081392574,0.02091784921134905,-0.07059997298510413,9.879551030279346
1636770497081764818,0.04966173596021436,-0.03798133579993682,9.846541055397838
1636770497100259622,0.00013584749229516874,-0.060229144976738376,9.853483987013705
1636770497112634162,0.056251240655487374,-0.05702256759385086,9.833602402139517
1636770497113107369,-0.00022543488748720446,-0.05961220695924271,9.853487737550315
1636770497131785006,0.0458544600691946,-0.05086953484812086,9.86624587357031
1636770497132728371,0.022254957558981762,-0.05483764604336704,9.859870060226179
1636770497151183258,0.04946336632947498,-0.08416909578556682,9.873006110703447
1636770497152124643,0.021911262766519998,-0.05432898424772713,9.859873647111392
1636770497171479287,0.035357796412846025,-0.06866662938383412,9.86644556429143
1636770497190089100,0.035663670620738885,-0.09256043757025564,9.834004145143778
1636770497202364856,0.025633470158233303,-0.08688263527966004,9.866641635514826
1636770497203009603,0.041589473415476856,-0.06302523016754638,9.885960070108903
1636770497221649919,0.04413913644068825,-0.04853439238629582,9.866265460066982
1636770497222110713,0.048095430846410187,-0.0815748530369939,9.873034645609536
1636770497240791083,-0.002616463097453618,-0.05605136248874002,9.853508291345769
1636770497241205580,0.05078349314867666,-0.06692524343206006,9.85334016243975
1636770497253349944,-0.002658853803080922,-0.05564238277951847,9.853510597877518
1636770497280457967,0.04773239441261599,-0.08072296896905663,9.873043409005653
1636770497281053962,0.04032707479508659,-0.061008260832689926,9.885977953351997
1636770497291805167,0.019790388711561312,-0.05090808296530398,9.859896386740491
1636770497292318461,0.013822790905369248,-0.07879770579325007,9.899300625659954
1636770497311050220,0.04263641047539378,-0.045885682278761934,9.866284741071686
1636770497311547026,0.016567597090998653,-0.06391206607533018,9.879604811911385
1636770497330169181,0.02634751349030048,-0.06892113843571121,9.846977612481222
1636770497342437972,0.042358506276296524,-0.04491412355889254,9.866290408548677
1636770497343104951,0.02615263097808014,-0.06819066662789197,9.846983217900322
1636770497361563407,0.04921334709125659,-0.06360247436822028,9.853370137810117
1636770497362380346,0.03920630149267008,-0.05785194880457878,9.886001436580067
1636770497381043757,0.015724434164580622,-0.06173948250989199,9.879620006554859
1636770497381842372,0.03855436968260391,-0.057462518786244185,9.886006270754574
1636770497400897003,0.04842714887462791,-0.06252664844255137,9.853380919439466
1636770497412013864,0.048370199178399305,-0.06211266777344786,9.853383816884984
1636770497412644007,0.015064809875049174,-0.060693761413233474,9.879627513122013
1636770497431403128,0.03798300986125602,-0.05617464187989645,9.886015885246788
1636770497432399834,0.04764537398716723,-0.06119772856955198,9.853393073508705
1636770497450426952,0.024277797403183764,-0.0650100644790742,9.847009531001454
1636770497462740222,0.021095179711256348,-0.07881411806768589,9.866720132651364
1636770497463368948,0.039682905853244924,-0.040937248547812326,9.86631883486867
1636770497481860018,0.02346467119831018,-0.0643352252900678,9.847015934360503
1636770497482836542,0.03931870955585868,-0.04031440190520865,9.866322858077663
1636770497501066268,0.043260499752289176,-0.07368952847552641,9.873119016325754
1636770497502053932,-0.0075458601463893145,-0.04822578913464575,9.85354715791797
1636770497513797247,0.03576099893574765,-0.05356298189649047,9.88603866740237
1636770497532555104,0.052615603760956746,-0.07802654013671843,9.840507009891333
1636770497533406163,0.04240257264438517,-0.07252405482191966,9.873131367888078
1636770497551487395,0.04498364825703787,-0.058200336740664015,9.853423745552888
1636770497551931600,0.0218041962409788,-0.06203425512822002,9.847034515059551
1636770497571610051,0.035041176695442114,-0.052097495245494105,9.886049076687186
1636770497590710325,0.021547011028205856,-0.06114574243443515,9.847040640354983
1636770497601750740,0.018376893605481514,-0.07469221343554575,9.866757634099635
1636770497603212411,0.028129786672002697,-0.07969928817596668,9.834141222786121
1636770497621033402,0.01778280547475443,-0.07420710124658708,9.86676238316482
1636770497622154330,0.03362663206883676,-0.050274033823784,9.886063430186438
1636770497640221696,0.017315565323635443,-0.07371094588464637,9.866766933992045
1636770497652490066,0.026874417176818023,-0.07871752159801876,9.834152641871926
1636770497653226615,0.05280105048787069,-0.05996651184411586,9.820836648756828
1636770497681024448,0.039891055253244476,-0.0685002970902411,9.873170571472727
1636770497681950053,0.021331128757313578,-0.07509676740797426,9.850469903484399
1636770497700237852,0.03909591985474001,-0.06760971428510461,9.873179892433166
1636770497712465466,0.025589370578125704,-0.0768967503685568,9.83417047510803
1636770497713030574,0.025327565233161323,-0.07662537695060034,9.834173271557404
1636770497731710420,0.015086892830827151,-0.07093725649673001,9.866790923555518
1636770497732352355,0.03786746638314594,-0.06640896516891423,9.873192829256045
1636770497750871907,0.03757332313982916,-0.06609445157172256,9.873196062777955
1636770497752072183,-0.006184357884054696,-0.06025266433144707,9.84067975213346
1636770497763688039,0.0370060141909864,-0.06561253937785289,9.873201419693883
1636770497782275242,0.016300810992188695,-0.055408877695684665,9.847084674562124
1636770497783215511,0.04349088247166025,-0.08413536273975575,9.860318198199732
1636770497801375922,0.015766379972723725,-0.054361858323291656,9.847091379545233
1636770497802517895,0.0357374006507477,-0.06383013842844314,9.873217777548657
1636770497821514519,0.038356277047148266,-0.04938375654953042,9.853499903449169
1636770497821524847,0.03531803883487341,-0.06316079111856765,9.873223591034142
1636770497833455291,0.03780688459734659,-0.04869161598416239,9.85350547225663
1636770497852109485,0.04178691618246571,-0.0817908375227539,9.860345293065173
1636770497853132812,0.04435448163254527,-0.06748181883959282,9.840625672715497
1636770497871308375,0.036911431125853086,-0.047821123465631867,9.853513130025798
1636770497872036369,0.017775792343014296,-0.08518326948123371,9.853949214998215
1636770497890507086,0.03645300946112266,-0.04692951962049524,9.853519122515978
1636770497902755418,0.030665160296548328,-0.07486132015957803,9.89296915363653
1636770497903460364,0.036020655250669185,-0.04633221570600739,9.853523540044378
1636770497920960975,0.032887329851833055,-0.06012250943781288,9.873250955616308
1636770497922090434,0.029766483304723285,-0.07384108591532818,9.892979567092913
1636770497941289052,0.03953334964600388,-0.07885245048497184,9.860378520683387
1636770497952334251,0.021908541425490417,-0.054635460054813546,9.814519525456578
1636770497953572429,0.018865605586994256,-0.0684791333304495,9.834247889334451
1636770497972513213,0.01578620254400618,-0.08242198200901728,9.853976085310618
1636770497973485205,0.031564641653143405,-0.05832289959318535,9.873266067771734
1636770497990569294,0.03136881316696907,-0.057991735048507756,9.873268642218084
1636770497991405190,0.01799927322575482,-0.06739758758760463,9.83425698504807
1636770498010899119,0.020989437070961896,-0.0521966731036297,9.905874309259408
1636770498021994915,0.017706612041100658,-0.06700990918904885,9.834260166165365
1636770498022624043,0.03057156263336839,-0.05702665110868991,9.87327676425589
1636770498041360629,0.033393318942995937,-0.042632139393342566,9.85354949704514
1636770498041927248,0.014409428449055605,-0.08021670375027161,9.853996394565241
1636770498060358108,0.022717583892728488,-0.036670866720378725,9.886154335520981
1636770498072603947,0.05999212548844572,-0.07087111062115001,9.866831983704236
1636770498073573406,0.016289299135914592,-0.06509516958081547,9.834275475816261
1636770498100779674,0.03259866997046365,-0.06461385252715736,9.86686000608127
1636770498112739274,0.012692404226151881,-0.0781697318645097,9.854015205534898
1636770498113329988,0.05447987152472088,-0.03566029550292118,9.859983802003056
1636770498131784815,0.035546272881296595,-0.07326023849814069,9.860436834672338
1636770498132700245,0.022188285593165644,-0.08276630074215602,9.82142509062531
1636770498152038281,0.004668187341898678,-0.05764454655288105,9.86688796740052
1636770498152477802,0.027564930791045567,-0.052923811459217866,9.873308461336695
1636770498171090322,0.04459123287803922,-0.07747482337882927,9.827853303716958
1636770498172101091,0.027151726667543598,-0.052439056670750536,9.87331219244261
1636770498191370226,0.04139891097120427,-0.09101884285351552,9.847593788567153
1636770498202287501,0.03405064179003223,-0.07117438539533283,9.86045738945964
1636770498202803479,0.026532706200617456,-0.05140596092991848,9.873319309925966
1636770498221512367,0.0333374640644597,-0.07055936157830194,9.860464246846368
1636770498222422676,0.033142848756429734,-0.07022875127237273,9.860467263242002
1636770498240724173,0.048835502899661126,-0.0460435060855914,9.879748266571024
1636770498241687485,0.04263058601195705,-0.07479105995291634,9.827882795340686
1636770498253496597,0.02232821692783351,-0.06373027458798257,9.893069449720924
1636770498272066292,0.00908860277632657,-0.07324674529572008,9.85405701178308
1636770498273034422,0.034595594645828405,-0.054556797936597866,9.840744965606978
1636770498291311802,0.027082742748203523,-0.03490134299898791,9.853599277331822
1636770498292239251,0.012679852663256885,-0.10600876062421506,9.86095064962564
1636770498310248819,0.021161350578284364,-0.06232934212297878,9.893080940267472
1636770498322485373,0.03390343206415021,-0.053325044652150495,9.840754124773131
1636770498323002822,0.02076973616594606,-0.061667841464499246,9.89308591672084
1636770498341700945,0.010282837139738312,-0.05698908950873379,9.8343339050519
1636770498342429964,0.0305788156394505,-0.06658047858585593,9.860500856357818
1636770498360823185,0.04369509271416444,-0.05665655058754318,9.899515846740844
1636770498361611735,0.03029498973403371,-0.06608485003309877,9.860505068753369
1636770498373734828,0.029973400753726346,-0.06576609837707409,9.86050818083066
1636770498392326270,0.045733640250179536,-0.041538577979364485,9.879783079985122
1636770498393420209,0.032464797224629825,-0.05096274462265569,9.840771493036234
1636770498411482436,0.0035626682945253205,-0.08323697000159559,9.8738315112376
1636770498411963687,0.036473616753820846,-0.08372226478079162,9.847678000736416
1636770498430743758,0.028845848402167952,-0.06383270257843866,9.860524249574663
1636770498441780552,0.005453453060817423,-0.06785065534762993,9.854098327130423
1636770498442333133,0.02821155786251555,-0.06308988706328826,9.860530866183217
1636770498461227945,0.0452791361449436,-0.08654606617042607,9.906455060948959
1636770498462465340,0.05064619895602156,-0.05800495101299708,9.86696840726395
1636770498480188799,0.034584309938861774,-0.08152877824116377,9.847703219303469
1636770498501068954,0.027166266843844673,-0.06186371102173126,9.86054156923885
1636770498502436483,0.03827812835601129,-0.05917125608109735,9.86376220373092
1636770498513163104,0.0336690858214473,-0.08025606258611442,9.847716845558251
1636770498532827978,0.026374179846547805,-0.06061484848859645,9.860551476013272
1636770498533650488,0.03325224558958107,-0.07987803432516416,9.847721336360053
1636770498551878208,0.045935047129483195,-0.06980036444985206,9.886739379274157
1636770498552399413,-0.005022966936591855,-0.044947823486453084,9.866953799931196
1636770498570875598,0.02514850862276787,-0.05982448547698127,9.860559505260293
1636770498571374579,0.05243928025004804,-0.08861497507051569,9.873917749991454
1636770498589968940,0.024622277377848858,-0.05928252273446844,9.860564105974184
1636770498610704424,0.02155487730217603,-0.07308785696264426,9.880315848614135
1636770498610885869,0.054487230315259934,-0.07372518873253157,9.85417918587528
1636770498622309553,0.031123321527345767,-0.07788529867204308,9.847744256529397
1636770498622901761,0.028000097030932952,-0.09164231681272361,9.867498259850134
1636770498641356233,0.025988961835138352,-0.04372417485584188,9.84082555133078
1636770498642176803,0.05320165985852333,-0.07241079362925765,9.854195958039096
1636770498661803046,0.00215522244179092,-0.04744147041033602,9.834389737599508
1636770498662317748,0.05287936727208422,-0.07197764889067404,9.854200864483106
1636770498673313840,0.029790168751921243,-0.07623673153115004,9.847761279278444
1636770498692001966,0.02964335149481388,-0.07602478110000489,9.847763360904723
1636770498693132482,0.019264839352561833,-0.07044770259414385,9.88033975512219
1636770498711090620,0.04216802961254736,-0.0656698153749862,9.88678446274727
1636770498711755145,0.03172516242447299,-0.061081782244987205,9.828018814507526
1636770498730299174,0.014083158595453359,-0.035920000946697346,9.87341339913953
1636770498742540018,0.028400677388703884,-0.07457715238667473,9.847778092819208
1636770498743149640,0.04399403740929737,-0.050491058662617015,9.867041620093817
1636770498761664780,0.020812578731386193,-0.05452837712011121,9.860600320382494
1636770498762560325,0.02790577116722633,-0.07364214413050878,9.847786543875365
1636770498780981957,0.027564729088042018,-0.07350070217703965,9.847788561076978
1636770498781266413,0.02446813643932194,-0.08736426370450079,9.86754645408499
1636770498793540755,0.04565486624186393,-0.035095518356084494,9.847297531132494
1636770498812228324,0.04997919307954294,-0.06838735322374499,9.854241571434386
1636770498813161645,0.02106838918954552,-0.10076179140612997,9.887310150578822
1636770498831482583,0.016213998394103774,-0.0669277851478137,9.880369704304897
1636770498831937888,0.03900019757680498,-0.06221505220741516,9.886819809131392
1636770498850428680,-8.418267012720155e-05,-0.09037751716515367,9.861114452021507
1636770498862705558,0.05151582835150475,-0.05297045571967668,9.834499556407675
1636770498863297541,0.02535257082505386,-0.07113133070393211,9.847811904431579
1636770498881766610,0.025071767599714995,-0.07074949226048992,9.847815373507006
1636770498882713136,0.02486150778128407,-0.07034414858949666,9.847818810792036
1636770498902079294,0.04052399923268397,-0.045961782627206973,9.867078619415826
1636770498920979641,0.032238318557736366,-0.05748228583695395,9.857454384151595
1636770498921456124,0.01113447942125294,-0.07766872157171292,9.9001558520642
1636770498940185951,0.026852414955487423,-0.054454677628558254,9.828072289865222
1636770498952410995,0.04426826276667704,-0.0777064112727013,9.874049637610996
1636770498952862866,0.023618585326823743,-0.06781319201578674,9.847839624039539
1636770498972766958,0.04642814139872174,-0.06308302423358372,9.854294325282142
1636770498973333032,0.013098089377642067,-0.06191750608941044,9.880406993433892
1636770498991566988,0.025815763937133855,-0.053018364220296266,9.828082920422377
1636770498992399181,0.03566382624311392,-0.05705941855158295,9.886863506193059
1636770499013058460,0.042796915719007095,-0.0761680926288902,9.87406811117715
1636770499014109062,0.012151588345277048,-0.061002000460388964,9.880413896943889
1636770499030527494,0.011916456694100725,-0.060737792907113654,9.880415812306842
1636770499031714669,0.04207575804331087,-0.07525807195122262,9.874078188603548
1636770499050943368,0.02877789205179748,-0.0848994065128925,9.835065544574634
1636770499062014748,0.04150891926766803,-0.07474390346045588,9.874084492993223
1636770499062637867,0.021065306952040713,-0.06473268584322499,9.847866147353527
1636770499081202204,0.010781678803904982,-0.059063831999701485,9.88042726298987
1636770499081706680,0.051162238542609824,-0.07919202483059587,9.841535011623678
1636770499100375105,0.04071998494300623,-0.07349178821245558,9.874097176655996
1636770499112694699,0.03318365568017191,-0.053757695801930315,9.886890645053825
1636770499113185918,0.027426791008444428,-0.08288688906483337,9.835086571758413
1636770499131714382,0.032790535686418924,-0.05338538466918548,9.886893973829645
1636770499133818050,0.022304774253816866,-0.048847990588236634,9.828113129989493
1636770499150780320,0.032117640493556164,-0.05245336400002989,9.886901172267663
1636770499151339735,0.039371170884741305,-0.07150786961583187,9.874117213454301
1636770499170039691,0.04670559651695775,-0.09072106486547589,9.861333130572444
1636770499182171157,0.008766201677366154,-0.05601797475777612,9.88044699597723
1636770499182677933,0.028929178625312114,-0.06640641275376921,9.815339689003237
1636770499201572936,0.03890586124511564,-0.0702091771108194,9.874128377818936
1636770499202157206,0.048940313188942985,-0.07521183242224014,9.841577533978066
1636770499220783867,0.020887628783686496,-0.04600313507942063,9.828129970657189
1636770499232961685,0.048335945948434746,-0.07476357904413096,9.841583935943342
1636770499233820062,0.01223447271337013,-0.08765248589347001,9.887449933831363
1636770499251968058,0.01757274208561119,-0.05932851797675414,9.84790703823356
1636770499252934008,0.030320103732099646,-0.04924943738107067,9.886923325840733
1636770499271064684,0.021926002401678933,-0.09251104501259909,9.854903033877878
1636770499271832020,0.04299040570279815,-0.04020791891207588,9.834600979347384
1636770499290163873,0.027030251520621544,-0.06253812548076074,9.906702309340002
1636770499302423926,0.04234362919226902,-0.0395382101283513,9.834606501277062
1636770499303201294,0.013434560894161637,-0.07198477579423948,9.867691823715097
1636770499323274084,0.023362060053056157,-0.07632280360644438,9.880815127095335
1636770499340688960,0.01283144483216854,-0.07117618773539147,9.86769849215538
1636770499341196929,0.035694553648027934,-0.06635672891617489,9.874167149425466
1636770499361076482,0.03544081004695741,-0.0659797145311298,9.874170590812913
1636770499373162485,0.011905292573359837,-0.07012738240444467,9.867707163620347
1636770499392278981,0.017769243094598094,-0.06532247263380425,9.841549385126314
1636770499393104577,0.04149321182368681,-0.08395482117886305,9.861416366643706
1636770499411408847,0.010883320304147666,-0.06873295216920318,9.867718153497286
1636770499412550790,0.03370617313589407,-0.06400084608735913,9.874189688236225
1636770499432341640,0.03618548855841546,-0.04986238209251753,9.854413023805716
1636770499432756709,0.020276134938748743,-0.07371562120840024,9.835176929183707
1636770499451640728,0.02753039364606456,-0.09293882021735199,9.82241291696099
1636770499452710376,0.03276131402501757,-0.06337025098899182,9.874196935701155
1636770499470502819,0.04263187707635077,-0.06844828591709444,9.841656247648997
1636770499482672295,0.03213840658626196,-0.06255818508031535,9.874204161883476
1636770499483373828,0.008775156152290412,-0.06665179798498826,9.867734530874031
1636770499501663610,0.06223317166198169,-0.07649604817161612,9.867923809682658
1636770499502550034,0.018717782465180004,-0.07127672445356925,9.835197995584318
1636770499520898981,0.034212571352390544,-0.04685816606615948,9.854434814980134
1636770499521378340,0.041526007005211044,-0.06590947455776805,9.841678304868577
1636770499533670812,0.008124279204966268,-0.06464120215462552,9.867748464738856
1636770499552602106,0.017885769351434468,-0.06963317373087262,9.83521131905268
1636770499553347265,0.06355425415256963,-0.060093398034821915,9.848166939532744
1636770499571549139,0.007054212038675936,-0.06353037970946994,9.867756500301747
1636770499572025213,0.05310950329684885,-0.05416370841307351,9.880710600268651
1636770499590775102,0.00945731131033135,-0.04906185552877198,9.847974675394301
1636770499601800176,0.0370751534447784,-0.07761288731503858,9.861485918226252
1636770499602373980,0.03685037801850569,-0.0772425063143813,9.861489669555128
1636770499620987625,0.029121099913275435,-0.05760425691281389,9.874243663270464
1636770499621526050,0.03355241266931106,-0.09087779007451231,9.881280935682247
1636770499641177953,0.04643626667793402,-0.08197549687396585,9.828960511342572
1636770499641579739,0.008286876982016926,-0.04749753762801227,9.847983399376293
1636770499653016913,0.03851824448008173,-0.06190343375734906,9.841716550042712
1636770499672627364,0.02811009586824593,-0.05616987275814443,9.874254856672348
1636770499673527942,0.035332076897897254,-0.0754489445072046,9.861509110982027
1636770499690703458,0.02484269478082715,-0.06984480479723629,9.894046359515293
1636770499691707170,0.037594837203016,-0.06077616467068046,9.841727147190364
1636770499710954994,0.027125992712742762,-0.0550301787303219,9.874264026703038
1636770499723053151,0.03432715560250141,-0.07430273994922676,9.861521363083602
1636770499742280420,0.030166525583844746,-0.0641381649924052,9.867897741857464
1636770499743356815,0.056704941458523866,-0.06888164695601719,9.868013213487522
1636770499761288729,0.007688675999329873,-0.09199912274182225,9.874837948730573
1636770499761904858,0.048894178870547964,-0.049119208494557115,9.880758723222451
1636770499781779720,0.02573982693584803,-0.05351524505974181,9.874276064500133
1636770499792734075,0.03576306403612625,-0.05869750230332906,9.841746589836278
1636770499793403748,0.009556310338821523,-0.07710651495132705,9.855055359616882
1636770499810882197,0.03244987287356304,-0.07206980692340216,9.861544290295786
1636770499811799460,0.032315036145534076,-0.07178761493921379,9.861546791558773
1636770499832221621,0.0192787717684186,-0.08150784593934712,9.822534085917187
1636770499833096675,0.03186819005662925,-0.0710829987517628,9.861553350376171
1636770499850961353,0.028946186031234823,-0.08471047988726987,9.881350297981614
1636770499852259595,0.023928610858825885,-0.050979348128601866,9.874294038314709
1636770499870133632,0.031222355755549668,-0.07019046287728194,9.861561808770901
1636770499882439652,0.031087421440674497,-0.06990840962872844,9.861564238887079
1636770499882939842,0.03347354205268075,-0.055525385033203103,9.841773051574963
1636770499902639971,0.04338111556291785,-0.059051720691960276,9.900586946032153
1636770499903503007,0.030324805790675195,-0.06874679373731724,9.86157477997621
1636770499920751962,0.0070017206652984165,-0.07303046157338634,9.855088553058533
1636770499921335508,0.032692561437437276,-0.05389004450703381,9.841784767056136
1636770499941208294,0.052705247998048134,-0.06293358921709367,9.868075114124474
1636770499953189673,0.02931568026777976,-0.0672802693437337,9.86158794586355
1636770499953604670,0.02899167781982508,-0.06692882155776811,9.861591295337568
1636770499972279601,0.0259718882607936,-0.08082197159675741,9.881391132485911
1636770499973224532,0.03129712178378606,-0.052603103885624405,9.841796265559218
1636770499991385439,0.03580691961829341,-0.08585836585683533,9.848872512696156
1636770499991873423,0.02808394138798127,-0.0661676622401712,9.861599057968268
1636770500010555501,0.05094378762670221,-0.06123559492393465,9.868095046832877
1636770500022814721,0.030357149548214616,-0.05151479259832718,9.841804967751658
1636770500023578180,0.00704183298933185,-0.055853464273399885,9.835312966090642
1636770500040978071,0.011629406429605074,-0.08904882406137206,9.84239445735375
1636770500041819097,0.0269712047646669,-0.06457329561034444,9.861612732657653
1636770500061318272,0.02663874058540536,-0.06432786423645548,9.861615240648065
1636770500061755257,0.02627502999547565,-0.06404152387980476,9.861618080143225
1636770500073008347,0.04648045209848949,-0.07298549637470232,9.887919509291844
1636770500092594710,0.04157101554882878,-0.039258905210464566,9.880836345103205
1636770500093613743,0.023049884995095093,-0.07712554422021906,9.881427923869412
1636770500110798735,0.048708280958840555,-0.058171342594256714,9.868124873127298
1636770500111338351,0.028239217155041366,-0.048565582356701234,9.841826267132515
1636770500131047447,0.025159721300514772,-0.062224571489505796,9.861632620756124
1636770500143632516,0.016878208539653897,-0.07386249082072213,9.852030739806933
1636770500162363782,0.024209830904241027,-0.06131845273626224,9.861640673874318
1636770500163194951,0.054488908689410774,-0.07569749287894281,9.855434364264148
1636770500181419415,0.0006922937106274274,-0.06538926532891065,9.855144677592872
1636770500181941925,0.051633774920878985,-0.08906020980999417,9.875245946439756
1636770500201680224,0.023632547172082723,-0.06000525784684527,9.861650151358273
1636770500212943717,0.020552399628336045,-0.07380166495075137,9.881458819042066
1636770500213538846,0.03051692012610094,-0.07879862507022654,9.848949338606104
1636770500240398851,0.033026636704471715,-0.06434867770642157,9.829145921866749
1636770500252983658,0.04398679697613979,-0.060732907320830316,9.878070152412525
1636770500253550461,0.00634455836721512,-0.08210745092638229,9.842459637064998
1636770500271028160,0.021572367265665023,-0.05765503088252985,9.861668893796208
1636770500271971376,0.016523521152184473,-0.023959548965837473,9.854562629116034
1636770500291273899,0.02873641738068633,-0.07649986326833252,9.84897281754644
1636770500291727362,0.04406829183103414,-0.05195237604269668,9.868181385907146
1636770500303203450,0.025643109620317826,-0.08978048930683172,9.868790203116893
1636770500322886388,0.020669722020259577,-0.05599251526300743,9.861680407016646
1636770500323701202,0.04065346074633433,-0.06494621144341395,9.888001256755619
1636770500340969251,0.019774414024204167,-0.05538720659964854,9.861685661508973
1636770500341411198,0.04250234019461421,-0.05033695803224262,9.868196626856031
1636770500361236622,-0.003675608551802691,-0.05953911809277461,9.855181096131593
1636770500372212953,0.019293278298659837,-0.05453303714820507,9.861691374331196
1636770500373357900,0.04969890464093903,-0.06888854745464258,9.855509628624796
1636770500391178795,0.039247957417917353,-0.06306894324461892,9.888019085842373
1636770500392062514,0.01361334364506872,-0.08312426704931318,9.809991279794621
1636770500411572526,0.015890689614030847,-0.0673133532222671,9.881513742850602
1636770500412092546,0.04906181773052467,-0.06777569661100732,9.855520535933566
1636770500423061365,0.01810770230240021,-0.052779911345834235,9.861703162415255
1636770500441872472,0.02545171575413265,-0.07172804692748302,9.84901776201145
1636770500442704359,0.015093655093620576,-0.06589023558279695,9.881524584323278
1636770500461199985,0.05090265124364876,-0.05222381167582484,9.83571882158544
1636770500461580049,0.024788658827064113,-0.07072865857484706,9.849026680245856
1636770500480367264,0.024488684457944405,-0.07052514976249863,9.849028890046858
1636770500492356122,0.037049641228742165,-0.06012138859335439,9.888045927655616
1636770500492964818,0.024200162056107893,-0.07013970522925018,9.849032355307383
1636770500511573277,0.04963060354907681,-0.051062442354303635,9.835731421141023
1636770500512676896,0.02363604682627072,-0.06934550936439943,9.849039349935579
1636770500530931514,0.04377600760180989,-0.07824851509484385,9.875375491187777
1636770500531715584,0.03584116612122249,-0.058611108391379146,9.88805944978048
1636770500543322546,0.027796165790296146,-0.10189924636736465,9.856186631580304
1636770500562040170,0.03275722776605288,-0.07187779626890284,9.907885081295262
1636770500563311306,0.03786605581753851,-0.04368056559450984,9.868247215270822
1636770500581238765,0.042591272044560306,-0.07699032155152714,9.87539056059697
1636770500581626790,0.04510180105875308,-0.06266542657014393,9.855573273367941
1636770500600351940,0.03183242503542555,-0.07074869646866616,9.90789622290846
1636770500612495837,0.07258321819612497,-0.09045268409441241,9.869245019022975
1636770500613298329,0.013623051781149441,-0.04681630794083936,9.861740490578997
1636770500631709717,0.020950960869814333,-0.06593290702157059,9.849068863499374
1636770500632184588,0.03065774437984322,-0.06950387357857707,9.907908737459529
1636770500653104728,0.031844021038128556,-0.0628741926813846,9.852334668913798
1636770500672648975,0.042910186049755814,-0.06002833698484321,9.855599473324242
1636770500673449917,0.039821906934734655,-0.07376273509354843,9.875426751910636
1636770500690704987,0.019323382415800398,-0.06424478054267456,9.849083347445497
1636770500691222151,0.04215823278427446,-0.05908512549526874,9.855608417914686
1636770500711044903,0.016094554676605827,-0.07762911539917046,9.86891345912755
1636770500711398354,0.0185807330321901,-0.063488415263833,9.84908968068036
1636770500730086302,0.041622989353113544,-0.05850442755858342,9.855614156408496
1636770500742170978,0.03874283995869814,-0.07209436020095193,9.875443366759866
1636770500743361418,0.015519019683321308,-0.07657171770391373,9.868922641292052
1636770500761422190,0.043658160853313276,-0.043660244181065205,9.835795387651727
1636770500762553626,0.01772611439840222,-0.062200162875066314,9.849099476385557
1636770500780506522,0.03814967122930254,-0.07106596564199433,9.875453128097423
1636770500792857840,0.017681261580814213,-0.06160893188290731,9.849103272848344
1636770500793537034,0.017349482055946785,-0.06136547637946549,9.849105383405897
1636770500810862688,0.039986039580744544,-0.05625975402195755,9.855634003585225
1636770500811722473,0.04740386528521049,-0.07541853255783078,9.842976347464814
1636770500831276883,0.03691193427800287,-0.06977129905129589,9.87546706378228
1636770500831743084,0.039407308355161375,-0.055422114181286286,9.855641080846079
1636770500842923146,-0.006996198030613258,-0.0647099344828493,9.842588951635841
1636770500862682795,0.04637245531895018,-0.07434823634378201,9.842989403293574
1636770500863573022,0.04889140162307458,-0.06014661086036846,9.823161811130303
1636770500881653428,0.03565410551560089,-0.06836567398834399,9.875481516213792
1636770500882671155,0.0457543949924366,-0.07342828534245334,9.842999202499321
1636770500900725140,0.03777917852331265,-0.053585936743878626,9.85565761077877
1636770500913190177,0.03745835203175166,-0.05327052790716908,9.855660544649213
1636770500913764022,0.03438024803118157,-0.06699643999112347,9.87549541787786
1636770500931160038,0.03687580688379318,-0.052686277122451386,9.855665882296186
1636770500932131460,0.0418290742569376,-0.08568253427081768,9.862850597617395
1636770500952134657,0.03892732332618517,-0.06846655981951326,9.859264596698901
1636770500970561014,0.025646855520290723,-0.04588161459034681,9.888158405240993
1636770500982847498,0.02044694718207031,-0.07525475329338609,9.83649810846124
1636770500983379899,0.009959634306691539,-0.06946336934746762,9.86898241056114
1636770501000888332,0.03540226205436224,-0.050367878683023365,9.855683407076391
1636770501001774797,0.04275285158196168,-0.06954306636444017,9.843040913075612
1636770501021029458,0.032316823946595755,-0.06376054761769373,9.875523807742601
